[
  {
    "name": "Churchgate",
    "code": "CCG",
    "line": "Western",
    "lat": 18.9353,
    "lon": 72.827,
    "platforms": 5,
    "accessibility": "Yes",
    "parking": "Limited",
    "last_mile_options": "Bus, Taxi, Auto"
  },
  {
    "name": "Marine Lines",
    "code": "MEL",
    "line": "Western",
    "lat": null,
    "lon": null,
    "platforms": null,
    "accessibility": null,
    "parking": null,
    "last_mile_options": null
  },
  {
    "name": "Charni Road",
    "code": "CYR",
    "line": "Western",
    "lat": null,
    "lon": null,
    "platforms": null,
    "accessibility": null,
    "parking": null,
    "last_mile_options": null
  },
  {
    "name": "Grant Road",
    "code": "GTR",
    "line": "Western",
    "lat": null,
    "lon": null,
    "platforms": null,
    "accessibility": null,
    "parking": null,
    "last_mile_options": null
  },
  {
    "name": "Mumbai Central",
    "code": "BCT",
    "line": "Western",
    "lat": 18.969,
    "lon": 72.8194,
    "platforms": 9,
    "accessibility": "Yes",
    "parking": "Available",
    "last_mile_options": "Bus, Taxi, Auto, Metro"
  },
  {
    "name": "Dadar WR",
    "code": "DDR",
    "line": "Western",
    "lat": 19.0183,
    "lon": 72.8421,
    "platforms": 7,
    "accessibility": "Yes",
    "parking": "Available",
    "last_mile_options": "Bus, Taxi, Auto, Metro"
  },
  {
    "name": "Bandra",
    "code": "BA",
    "line": "Western",
    "lat": 19.0546,
    "lon": 72.84,
    "platforms": 8,
    "accessibility": "Yes",
    "parking": "Available",
    "last_mile_options": "Bus, Taxi, Auto, Metro"
  },
  {
    "name": "Andheri",
    "code": "ADH",
    "line": "Western",
    "lat": 19.1197,
    "lon": 72.8468,
    "platforms": 9,
    "accessibility": "Yes",
    "parking": "Available",
    "last_mile_options": "Bus, Taxi, Auto, Metro"
  },
  {
    "name": "Borivali",
    "code": "BVI",
    "line": "Western",
    "lat": 19.2307,
    "lon": 72.8567,
    "platforms": 10,
    "accessibility": "Yes",
    "parking": "Available",
    "last_mile_options": "Bus, Taxi, Auto, Metro"
  },
  {
    "name": "Vasai Road",
    "code": "BSR",
    "line": "Western",
    "lat": 19.3732,
    "lon": 72.833,
    "platforms": 7,
    "accessibility": "Yes",
    "parking": "Available",
    "last_mile_options": "Bus, Taxi, Auto"
  },
  {
    "name": "Virar",
    "code": "VR",
    "line": "Western",
    "lat": 19.455,
    "lon": 72.8117,
    "platforms": 8,
    "accessibility": "Yes",
    "parking": "Available",
    "last_mile_options": "Bus, Taxi, Auto"
  },
  {
    "name": "CSMT",
    "code": "CSMT",
    "line": "Central",
    "lat": 18.9402,
    "lon": 72.8358,
    "platforms": 18,
    "accessibility": "Yes",
    "parking": "Available",
    "last_mile_options": "Bus, Taxi, Auto, Metro"
  },
  {
    "name": "Byculla",
    "code": "BY",
    "line": "Central",
    "lat": null,
    "lon": null,
    "platforms": null,
    "accessibility": null,
    "parking": null,
    "last_mile_options": null
  },
  {
    "name": "Dadar CR",
    "code": "DR",
    "line": "Central",
    "lat": 19.0183,
    "lon": 72.8421,
    "platforms": 8,
    "accessibility": "Yes",
    "parking": "Available",
    "last_mile_options": "Bus, Taxi, Auto, Metro"
  },
  {
    "name": "Kurla",
    "code": "C",
    "line": "Central",
    "lat": 19.0726,
    "lon": 72.8796,
    "platforms": 8,
    "accessibility": "Yes",
    "parking": "Available",
    "last_mile_options": "Bus, Taxi, Auto, Metro"
  },
  {
    "name": "Thane",
    "code": "TNA",
    "line": "Central",
    "lat": 19.186,
    "lon": 72.975,
    "platforms": 10,
    "accessibility": "Yes",
    "parking": "Available",
    "last_mile_options": "Bus, Taxi, Auto, Metro"
  },
  {
    "name": "Kalyan",
    "code": "KYN",
    "line": "Central",
    "lat": 19.243,
    "lon": 73.135,
    "platforms": 8,
    "accessibility": "Yes",
    "parking": "Available",
    "last_mile_options": "Bus, Taxi, Auto"
  },
  {
    "name": "Kasara",
    "code": "KSRA",
    "line": "Central",
    "lat": null,
    "lon": null,
    "platforms": null,
    "accessibility": null,
    "parking": null,
    "last_mile_options": null
  },
  {
    "name": "Karjat",
    "code": "KJT",
    "line": "Central",
    "lat": null,
    "lon": null,
    "platforms": null,
    "accessibility": null,
    "parking": null,
    "last_mile_options": null
  },
  {
    "name": "CSMT",
    "code": "CSMT",
    "line": "Harbour",
    "lat": 18.9402,
    "lon": 72.8358,
    "platforms": 18,
    "accessibility": "Yes",
    "parking": "Available",
    "last_mile_options": "Bus, Taxi, Auto, Metro"
  },
  {
    "name": "Dockyard Road",
    "code": "DKRD",
    "line": "Harbour",
    "lat": null,
    "lon": null,
    "platforms": null,
    "accessibility": null,
    "parking": null,
    "last_mile_options": null
  },
  {
    "name": "Wadala Road",
    "code": "WDLR",
    "line": "Harbour",
    "lat": null,
    "lon": null,
    "platforms": null,
    "accessibility": null,
    "parking": null,
    "last_mile_options": null
  },
  {
    "name": "Kurla",
    "code": "C",
    "line": "Harbour",
    "lat": 19.0726,
    "lon": 72.8796,
    "platforms": 8,
    "accessibility": "Yes",
    "parking": "Available",
    "last_mile_options": "Bus, Taxi, Auto, Metro"
  },
  {
    "name": "Vashi",
    "code": "VSH",
    "line": "Harbour",
    "lat": null,
    "lon": null,
    "platforms": 4,
    "accessibility": "Yes",
    "parking": "Available",
    "last_mile_options": "Bus, Taxi, Auto"
  },
  {
    "name": "Belapur",
    "code": "BEPR",
    "line": "Harbour",
    "lat": null,
    "lon": null,
    "platforms": 6,
    "accessibility": "Yes",
    "parking": "Available",
    "last_mile_options": "Bus, Taxi, Auto"
  },
  {
    "name": "Panvel",
    "code": "PNVL",
    "line": "Harbour",
    "lat": 18.9894,
    "lon": 73.1175,
    "platforms": 7,
    "accessibility": "Yes",
    "parking": "Available",
    "last_mile_options": "Bus, Taxi, Auto"
  },
  {
    "name": "Thane",
    "code": "TNA",
    "line": "Trans-Harbour",
    "lat": 19.186,
    "lon": 72.975,
    "platforms": 10,
    "accessibility": "Yes",
    "parking": "Available",
    "last_mile_options": "Bus, Taxi, Auto, Metro"
  },
  {
    "name": "Kopar Khairane",
    "code": "KPHN",
    "line": "Trans-Harbour",
    "lat": null,
    "lon": null,
    "platforms": null,
    "accessibility": null,
    "parking": null,
    "last_mile_options": null
  },
  {
    "name": "Vashi",
    "code": "VSH",
    "line": "Trans-Harbour",
    "lat": null,
    "lon": null,
    "platforms": 4,
    "accessibility": "Yes",
    "parking": "Available",
    "last_mile_options": "Bus, Taxi, Auto"
  },
  {
    "name": "Nerul",
    "code": "NEU",
    "line": "Trans-Harbour",
    "lat": null,
    "lon": null,
    "platforms": null,
    "accessibility": null,
    "parking": null,
    "last_mile_options": null
  },
  {
    "name": "Panvel",
    "code": "PNVL",
    "line": "Trans-Harbour",
    "lat": 18.9894,
    "lon": 73.1175,
    "platforms": 7,
    "accessibility": "Yes",
    "parking": "Available",
    "last_mile_options": "Bus, Taxi, Auto"
  }
]